{"address":"WOODBINE MEDICAL CENTRE, 31 WOODBINE PARK, BOOTERSTOWN, CO.DUBLIN,IRELAND","latitudeAndLongitude":{"longitude":-6.2086424,"latitude":53.310229},"status":"OK","id":"60470","name":"DR.RICHARD BLAKE"} {"address":"BEECHLAWN MED CTR, CARRICKBRENNAN ROAD, MONKSTOWN, CO. DUBLIN,IRELAND","latitudeAndLongitude":{"longitude":-6.1514257,"latitude":53.2917783},"status":"OK","id":"61348","name":"DR.PENNY BLEAKLEY"} {"address":"33 BAYVIEW DRIVE, KILLINEY, CO. DUBLIN,IRELAND","latitudeAndLongitude":{"longitude":-6.1192715,"latitude":53.2459699},"status":"OK","id":"54150","name":"DR.MARIA BOHANE"} {"address":"THE DUN LAOGHAIRE SURGERY, 1 LOWER GLENAGEARY RD, DUN LAOGHAIRE,CO. DUBLIN,IRELAND","latitudeAndLongitude":{"longitude":-6.1349316,"latitude":53.2813719},"status":"OK","id":"65443","name":"DR.NICOLA BOYLE"} {"address":"BEECHLAWN MEDICAL CENTRE, CARRICKBRENNAN ROAD, MONKSTOWN, CO.DUBLIN,IRELAND","latitudeAndLongitude":{"longitude":-6.1514257,"latitude":53.2917783},"status":"OK","id":"52152","name":"DR.SARAH BROOKES"} {"address":"JOHNSTOWN MEDICAL CENTRE, JOHNSTOWN ROAD, DUN LAOGHAIRE, CO.DUBLIN,IRELAND","latitudeAndLongitude":{"longitude":-6.1483759,"latitude":53.2656986},"status":"OK","id":"61749","name":"DR.BARRY DANAHER"} {"address":"STILLORGAN MEDICAL CENTRE, 22 LOWER KILMACUD ROAD, STILLORGAN, CO.DUBLIN,IRELAND","latitudeAndLongitude":{"longitude":-6.2001197,"latitude":53.2884642},"status":"OK","id":"64386","name":"DR.JOHN DUIGNAN"} {"address":"GENERATION HEALTH, 1ST FLOOR,GLENAGEARY S.C, CO DUBLIN,IRELAND","latitudeAndLongitude":{"longitude":-6.310565599999999,"latitude":53.3302033},"status":"OK","id":"52489","name":"DR.JAMES GERAGHTY"} {"address":"KILMACUD MEDICAL CENTRE, LOWER KILMACUD ROAD, STILLORGAN, CO.DUBLIN,IRELAND","latitudeAndLongitude":{"longitude":-6.2082635,"latitude":53.2890763},"status":"OK","id":"62249","name":"DR.SIOBHAN GRAHAM"} {"address":"BLACKROCK FAMILY PRACTICE, 41 MAIN STREET, BLACKROCK, CO. DUBLIN,IRELAND","latitudeAndLongitude":{"longitude":-6.1772867,"latitude":53.3009423},"status":"OK","id":"58083","name":"DR.ORLA HALPENNY"} {"address":"BAYVIEW SURGERY, KILLINEY HILL ROAD, KILLINEY,CO. DUBLIN,IRELAND","latitudeAndLongitude":{"longitude":-6.118509599999999,"latitude":53.25769700000001},"status":"OK","id":"52517","name":"DR.LAURA HOULIHAN"} {"address":"BAYVIEW SURGERY, 33 BAYVIEW DRIVE, KILLINEY, CO. DUBLIN,IRELAND","latitudeAndLongitude":{"longitude":-6.1192715,"latitude":53.2459699},"status":"OK","id":"64742","name":"DR.MICHAEL HOULIHAN"} {"address":"ATHGOE SURGERY, 1 ATHGOE DRIVE, SHANKILL CO. DUBLIN,IRELAND","latitudeAndLongitude":{"longitude":-6.1209383,"latitude":53.234724},"status":"OK","id":"61038","name":"DR.PATRICK IRWIN"} {"address":"BEECHLAWN MEDICAL CENTRE, CARRICKBRENNAN ROAD, MONKSTOWN, CO.DUBLIN,IRELAND","latitudeAndLongitude":{"longitude":-6.1514257,"latitude":53.2917783},"status":"OK","id":"52021","name":"DR.KARL KAVANAGH"} {"address":"JOHNSTOWN MEDICAL CENTRE, JOHNSTOWN ROAD, DUN LAOGHAIRE,CO.DUBLIN,IRELAND","latitudeAndLongitude":{"longitude":-6.1483759,"latitude":53.2656986},"status":"OK","id":"60770","name":"DR.BRIAN KILBRIDE"} {"address":"GLENCAIRN MEDICAL CENTRE, LEOPARDSTOWN VALLEY, BALLYOGAN ROAD,DUBLIN 18,IRELAND","latitudeAndLongitude":{"longitude":0.0,"latitude":0.0},"status":"NOT_FOUND","id":"55018","name":"DR.DECLAN MAHER"} {"address":"DOCTOR'S SURGERY, BREFFNI HSE, WYATVILLE RD, BALLYBRACK, CO. DUBLIN,IRELAND","latitudeAndLongitude":{"longitude":-6.1193627,"latitude":53.2487886},"status":"AMBIGUOUS","id":"70001","name":"DR.LUCIA MAIOR"} {"address":"SHANKILL FAMILY PRACTICE, 1 ATHGOE DRIVE, SHANKILL, CO. DUBLIN,IRELAND","latitudeAndLongitude":{"longitude":-6.1209383,"latitude":53.234724},"status":"OK","id":"52549","name":"DR.JOSEPH MARRY"} {"address":"JOHNSTOWN MEDICAL CENTRE, JOHNSTOWN ROAD, DUN LAOGHAIRE, CO.DUBLIN,IRELAND","latitudeAndLongitude":{"longitude":-6.1483759,"latitude":53.2656986},"status":"OK","id":"66347","name":"DR.FERGUS MASON"} {"address":"MOUNT MERRION MED CTR, 1ST FLR., 71 DEERPARK RD, MOUNT MERRION, CO.DUBLIN,IRELAND","latitudeAndLongitude":{"longitude":-6.2124128,"latitude":53.2961447},"status":"OK","id":"81620","name":"DR.DONAL JAMES MCCAFFERTY"} {"address":"HARBOUR HEALTH, 1 & 2 LOWER GLENAGEARY RD, DUN LAOGHAIRE, CO.DUBLIN,IRELAND","latitudeAndLongitude":{"longitude":-6.130120199999999,"latitude":53.2891767},"status":"OK","id":"62464","name":"DR.MADELEINE MCCARTHY"} {"address":"THE SHEEHAN MED PRCT, 21 SUMMERHILL ROAD, DUN LAOGHAIRE, CO. DUBLIN,IRELAND","latitudeAndLongitude":{"longitude":-6.125566099999999,"latitude":53.2880822},"status":"OK","id":"81744","name":"DR.JAMES D. MCSHANE"} {"address":"SHEEHAN MEDICAL PRACTICE, UNIT 1, POTTERY ROAD, DUN LAOGHAIRE, CODUBLIN,IRELAND","latitudeAndLongitude":{"longitude":0.0,"latitude":0.0},"status":"NOT_FOUND","id":"81744","name":"DR.JAMES D. MCSHANE"} {"address":"KILMACUD MEDICAL CENTRE, LOWER KILMACUD ROAD, STILLORGAN, CO.DUBLIN,IRELAND","latitudeAndLongitude":{"longitude":-6.2082635,"latitude":53.2890763},"status":"OK","id":"81582","name":"DR.BRIAN MEADE"} {"address":"BLACKROCK MEDICAL PRCT, 62 NEWTOWNPARK AVE, BLACKROCK, CO.DUBLIN,IRELAND","latitudeAndLongitude":{"longitude":-6.1713876,"latitude":53.291142},"status":"OK","id":"60701","name":"DR.CONOR MURPHY"} {"address":"BLACKROCK MEDICAL PRCT, 62 NEWTOWNPARK AVENUE, BLACKROCK, CO.DUBLIN,IRELAND","latitudeAndLongitude":{"longitude":-6.1713876,"latitude":53.291142},"status":"OK","id":"81043","name":"DR.JOHN F. MURPHY"} {"address":"GLENEAGLE MEDICAL CENTRE, GREYGATES, BLACKROCK, CO. DUBLIN,IRELAND","latitudeAndLongitude":{"longitude":-6.1770668,"latitude":53.300791},"status":"OK","id":"52515","name":"DR.ANDREW O' FLAHERTY"} {"address":"MT MERRION MEDICAL CLINIC, 71 DEERPARK ROAD, MOUNT MERRION, CO.DUBLIN,IRELAND","latitudeAndLongitude":{"longitude":-6.2124128,"latitude":53.2961447},"status":"OK","id":"60812","name":"DR.NOREEN O'HANRAHAN"} {"address":"JOHNSTOWN MEDICAL CENTRE, JOHNSTOWN ROAD, DUN LAOGHAIRE, CO.DUBLIN,IRELAND","latitudeAndLongitude":{"longitude":-6.1483759,"latitude":53.2656986},"status":"OK","id":"52203","name":"DR.CONOR O'LEARY"} {"address":"DEANSGRANGE MEDICAL CTR, 2 CLONKEEN ROAD, BLACKROCK, CO. DUBLIN,IRELAND","latitudeAndLongitude":{"longitude":-6.1633817,"latitude":53.2783747},"status":"OK","id":"65307","name":"DR.SORCHA QUIGLEY"} {"address":"THE BLACKROCK MED CTR, 2 FRASCATI PK, BLACKROCK, CO. DUBLIN,IRELAND","latitudeAndLongitude":{"longitude":-6.1770668,"latitude":53.300791},"status":"OK","id":"60789","name":"DR.JOHN PATRICK REDMOND"} {"address":"BLACKROCK MEDICAL CENTRE, 2 FRASCATI PK, GEORGES AV, BLACKROCK,CO. DUBLIN,IRELAND","latitudeAndLongitude":{"longitude":-6.1806982,"latitude":53.3003891},"status":"OK","id":"62359","name":"DR.BRIGID SHEEHY"} {"address":"KILMACUD MEDICAL CENTRE, LOWER KILMACUD RD, STILLORGAN. CO. DUBLIN,IRELAND","latitudeAndLongitude":{"longitude":-6.2082635,"latitude":53.2890763},"status":"OK","id":"63282","name":"DR.MARY TIGHE"} {"address":"CHURCHTOWN MEDICAL, 3 LANDSCAPE ROAD, CHURCHTOWN, DUBLIN 14,IRELAND","latitudeAndLongitude":{"longitude":0.0,"latitude":0.0},"status":"NOT_FOUND","id":"52441","name":"DR.PAUL CARROLL"} {"address":"UNIT 10, BALALLY SHOPPING CENTRE, SANDYFORD, DUBLIN 16,IRELAND","latitudeAndLongitude":{"longitude":0.0,"latitude":0.0},"status":"NOT_FOUND","id":"81647","name":"DR.PAUL CASEY"} {"address":"GOATSTOWN MEDICAL CENTRE, 6 DRUMMARTIN TERRACE, GOATSTOWN,DUBLIN 14,IRELAND","latitudeAndLongitude":{"longitude":0.0,"latitude":0.0},"status":"NOT_FOUND","id":"53902","name":"DR.CATHY CULLEN"} {"address":"BALLINTEER MEDICAL, UNIT 1, BALLINTEER BUSINESS CENTRE, BALLINTEERAVENUE, DUBLIN 16,IRELAND","latitudeAndLongitude":{"longitude":-6.2554371,"latitude":53.27673009999999},"status":"OK","id":"54058","name":"DR.JANET DURKIN"} {"address":"21 WOODPARK, BALLINTEER AVENUE, DUNDRUM, DUBLIN 16,IRELAND","latitudeAndLongitude":{"longitude":-6.2467223,"latitude":53.2775863},"status":"OK","id":"63910","name":"DR.BRIAN FAGAN"} {"address":"RANELAGH MEDICAL, 22-26 SANDFORD ROAD, RANELAGH, DUBLIN 6,IRELAND","latitudeAndLongitude":{"longitude":0.0,"latitude":0.0},"status":"NOT_FOUND","id":"54176","name":"DR.JEAN GALLAGHER"} {"address":"CHURCHTOWN MEDICAL, 3 LANDSCAPE ROAD, CHURCHTOWN, DUBLIN 14,IRELAND","latitudeAndLongitude":{"longitude":0.0,"latitude":0.0},"status":"NOT_FOUND","id":"72004","name":"DR.SERENA GAVIN"} {"address":"RANELAGH MEDICAL, 22-26 SANDFORD ROAD, RANELAGH, DUBLIN 6,IRELAND","latitudeAndLongitude":{"longitude":0.0,"latitude":0.0},"status":"NOT_FOUND","id":"52499","name":"DR.SONJA KIDNEY"} {"address":"5 CAMBRIDGE VILLAS, BELGRAVE ROAD, RATHMINES, DUBLIN 6,IRELAND","latitudeAndLongitude":{"longitude":0.0,"latitude":0.0},"status":"NOT_FOUND","id":"60670","name":"DR.PAULINE KING"} {"address":"BRIDE ST HEALTH CTR, DUBLIN 8.,IRELAND","latitudeAndLongitude":{"longitude":0.0,"latitude":0.0},"status":"NOT_FOUND","id":"60670","name":"DR.PAULINE KING"} {"address":"GLENCAIRN MEDICAL CENTRE, BALLYOGAN ROAD, DUBLIN 18.,IRELAND","latitudeAndLongitude":{"longitude":0.0,"latitude":0.0},"status":"NOT_FOUND","id":"60030","name":"DR.CONOR MAGUIRE"} {"address":"5 CAMBRIDGE VILLAS, BELGRAVE ROAD, RATHMINES, DUBLIN 6,IRELAND","latitudeAndLongitude":{"longitude":0.0,"latitude":0.0},"status":"NOT_FOUND","id":"64408","name":"DR.JOSEPH MARTIN"} {"address":"DUNDRUM FAMILY PRACTICE, 218 BARTON ROAD EAST, DUNDRUM, DUBLIN 14,IRELAND","latitudeAndLongitude":{"longitude":0.0,"latitude":0.0},"status":"NOT_FOUND","id":"60508","name":"DR.PAUL MCCORMICK"} {"address":"SOLAS MEDICAL CENTRE, 1ST FLOOR RATHFARNHAM S.C, RATHFARNHAM,DUBLIN 14,IRELAND","latitudeAndLongitude":{"longitude":0.0,"latitude":0.0},"status":"NOT_FOUND","id":"52198","name":"DR.SHANE MCKEOGH"} {"address":"CHURCHTOWN MEDICAL, 3 LANDSCAPE ROAD, CHURCHTOWN, DUBLIN 14,IRELAND","latitudeAndLongitude":{"longitude":0.0,"latitude":0.0},"status":"NOT_FOUND","id":"55920","name":"DR.AHMED MEHTAR"} {"address":"THE GABLES MEDICAL CENTRE, BALLINTEER ROAD, DUNDRUM, DUBLIN 16,IRELAND","latitudeAndLongitude":{"longitude":0.0,"latitude":0.0},"status":"NOT_FOUND","id":"54179","name":"DR.DERVAL MERCER"} {"address":"111D BEAUMONT AVE, CHURCHTOWN, DUBLIN 14,IRELAND","latitudeAndLongitude":{"longitude":-6.256162,"latitude":53.2882617},"status":"OK","id":"52547","name":"DR.KNUT MOE"} {"address":"GOATSTOWN MEDICAL CENTRE, 6 DRUMMARTIN TERRACE, GOATSTOWN,DUBLIN 14,IRELAND","latitudeAndLongitude":{"longitude":0.0,"latitude":0.0},"status":"NOT_FOUND","id":"81779","name":"DR.TIERNAN ANTHONY MURRAY"} {"address":"FAMILY PRACTICE, LEOPARDSTOWN SHOP CTR, BALLOGAN RD, DUBLIN 18,IRELAND","latitudeAndLongitude":{"longitude":0.0,"latitude":0.0},"status":"NOT_FOUND","id":"60700","name":"DR.MICHAEL O'BRIEN"} {"address":"GRANGE RD FAMILY PRACTICE, GRANGE ROAD RETAIL CENTRE,RATHFARNHAM, DUBLIN 16,IRELAND","latitudeAndLongitude":{"longitude":0.0,"latitude":0.0},"status":"NOT_FOUND","id":"60015","name":"DR.SEAN O'CALLAGHAN"} {"address":"THE GABLES MEDICAL CENTRE, 1 BALLINTEER ROAD, DUNDRUM, DUBLIN 16,IRELAND","latitudeAndLongitude":{"longitude":0.0,"latitude":0.0},"status":"NOT_FOUND","id":"62618","name":"DR.PATRICIA O'CONNELL"} {"address":"MOREHAMPTON CLINIC, 136 MOREHAMPTON ROAD, DONNYBROOK, DUBLIN 4,IRELAND","latitudeAndLongitude":{"longitude":0.0,"latitude":0.0},"status":"NOT_FOUND","id":"64696","name":"DR.JOHN O'KEEFFE"} {"address":"GRANGE RD FAMILY PRCT, GRANGE ROAD RETAIL PARK, RATHFARNHAM,DUBLIN 16,IRELAND","latitudeAndLongitude":{"longitude":0.0,"latitude":0.0},"status":"NOT_FOUND","id":"52130","name":"DR.MARK O'SULLIVAN"} {"address":"AYLESBURY CLINIC, AYLESBURY SHOPPING CENTRE, TALLAGHT, DUBLIN 24,IRELAND","latitudeAndLongitude":{"longitude":-0.8084,"latitude":51.815606},"status":"OK","id":"58359","name":"DR.BARRY QUINN"} {"address":"BALLINTEER MEDICAL, UNIT 1, BALLINTEER BUSINESS CENTRE, BALLINTEERAVENUE, DUBLIN 16,IRELAND","latitudeAndLongitude":{"longitude":-6.2554371,"latitude":53.27673009999999},"status":"OK","id":"54059","name":"DR.CAOIMHE RYAN"} {"address":"RANELAGH MEDICAL, 22-26 SANDFORD RD, RANELAGH, DUBLIN 6,IRELAND","latitudeAndLongitude":{"longitude":0.0,"latitude":0.0},"status":"NOT_FOUND","id":"54164","name":"DR.JUSTIN SMYTH"} {"address":"BALLYBODEN MEDICAL PRACTICE, UNIT 1, BALLYBODEN SHOPPING CENTRE,TAYLOR'S LANE, DUBLIN 16,IRELAND","latitudeAndLongitude":{"longitude":0.0,"latitude":0.0},"status":"NOT_FOUND","id":"52643","name":"DR.PATRICK SMYTH"} {"address":"AUNGIER STREET CLINIC, 16 REDMONDHILL, AUNGIER STREET, DUBLIN 2,IRELAND","latitudeAndLongitude":{"longitude":0.0,"latitude":0.0},"status":"NOT_FOUND","id":"54118","name":"DR.HOSSEIN TABESH"} {"address":"RIALTO MEDICAL CENTRE, 478 SOUTH CIRCULAR ROAD, RIALTO, DUBLIN 8,IRELAND","latitudeAndLongitude":{"longitude":0.0,"latitude":0.0},"status":"NOT_FOUND","id":"63774","name":"DR.RAYMOND BRENNAN"} {"address":"SHEEHAN MEDICAL PRACTICE, 21 SUMMERHILL ROAD, DUN LAOGHAIRE, CO.DUBLIN,IRELAND","latitudeAndLongitude":{"longitude":-6.125566099999999,"latitude":53.2880822},"status":"OK","id":"52269","name":"DR.CIARA DOHERTY"} {"address":"SHEEHAN MEDICAL PRACTICE, UNIT 1, POTTERY ROAD,, DUN LAOGHAIRE, CODUBLIN,IRELAND","latitudeAndLongitude":{"longitude":0.0,"latitude":0.0},"status":"NOT_FOUND","id":"52269","name":"DR.CIARA DOHERTY"} {"address":"UNIT 1, BALLYBODEN S.C, TAYLORS LANE, BALLYBODEN DUBLIN 16,IRELAND","latitudeAndLongitude":{"longitude":-6.299276799999999,"latitude":53.2830837},"status":"AMBIGUOUS","id":"64041","name":"DR.DENIS DONOHOE"} {"address":"THE ALBANY CLINIC, CLIFTON COURT, LR. FITZWILLIAM , DUBLIN 2,IRELAND","latitudeAndLongitude":{"longitude":0.0,"latitude":0.0},"status":"NOT_FOUND","id":"52323","name":"DR.MICHAEL JOHN FLYNN"} {"address":"PEARSE STREET PCC, MARK'S LANE , OFF LOMBARD ST., DUBLIN 2,IRELAND","latitudeAndLongitude":{"longitude":0.0,"latitude":0.0},"status":"NOT_FOUND","id":"60406","name":"DR.JOHN BERNARD GILROY"} {"address":"INCHICORE P.C.C, ST MICHAEL'S ESTATE, INCHICORE, DUBLIN 8,IRELAND","latitudeAndLongitude":{"longitude":0.0,"latitude":0.0},"status":"NOT_FOUND","id":"63274","name":"DR.KIERAN HARKIN"} {"address":"RINGSEND MEDICAL CENTRE, 5 FITZWILLIAM STREET, RINGSEND, DUBLIN 4,IRELAND","latitudeAndLongitude":{"longitude":0.0,"latitude":0.0},"status":"NOT_FOUND","id":"61059","name":"DR.CHRISTINE HAYES"} {"address":"THOMAS COURT P.C.C, ST CATHERINES LANE WEST, DUBLIN 8.,IRELAND","latitudeAndLongitude":{"longitude":0.0,"latitude":0.0},"status":"NOT_FOUND","id":"81361","name":"DR.JOHN D. LATHAM"} {"address":"INCHICORE MEDICAL CENTRE, 15 GRATTAN CRESCENT, INCHICORE, DUBLIN 8,IRELAND","latitudeAndLongitude":{"longitude":0.0,"latitude":0.0},"status":"NOT_FOUND","id":"60198","name":"DR.EMER LOUGHREY"} {"address":"MOREHAMPTON CLINIC, 136 MOREHAMPTON ROAD, DONNYBROOK, DUBLIN 4,IRELAND","latitudeAndLongitude":{"longitude":0.0,"latitude":0.0},"status":"NOT_FOUND","id":"54061","name":"DR.LAURA MACKENZIE"} {"address":"INCHICORE FAMILY DOCTORS, PCC, ST. MICHAEL'S ESTATE, INCHICORE, DUBLIN8,IRELAND","latitudeAndLongitude":{"longitude":0.0,"latitude":0.0},"status":"NOT_FOUND","id":"61839","name":"DR.EIMEAR MALLON"} {"address":"IVEAGH MEDICAL CLINIC, 235 CRUMLIN ROAD, CRUMLIN , DUBLIN 12,IRELAND","latitudeAndLongitude":{"longitude":-6.3164447,"latitude":53.3218189},"status":"OK","id":"65544","name":"DR.JOHN O'CONNELL"} {"address":"RIALTO MEDICAL, 478 SOUTH CIRCULAR ROAD, RIALTO, DUBLIN 8,IRELAND","latitudeAndLongitude":{"longitude":0.0,"latitude":0.0},"status":"NOT_FOUND","id":"52495","name":"DR.MARK O'KELLY"} {"address":"RIALTO MEDICAL CENTRE, 478 SOUTH CIRCULAR ROAD, RIALTO, DUBLIN 8,IRELAND","latitudeAndLongitude":{"longitude":0.0,"latitude":0.0},"status":"NOT_FOUND","id":"58348","name":"DR.SIOBHAN O'KELLY"} {"address":"CAMDEN MEDICAL, THE MEATH PCC, HEYTESBURY ST, DUBLIN 8,IRELAND","latitudeAndLongitude":{"longitude":-75.1196199,"latitude":39.9259463},"status":"OK","id":"52320","name":"DR.ALAN O'REILLY"} {"address":"IRISHTOWN P.C.C, IRISHTOWN ROAD, DUBLIN 4.,IRELAND","latitudeAndLongitude":{"longitude":-6.2245646,"latitude":53.34048989999999},"status":"OK","id":"60376","name":"DR.ANTHONY (TONY) O'SULLIVAN"} {"address":"CENTRIC HEALTH ALBANY CLINIC, LOWER FITZWILLIAM STREET, DUBLIN 2,IRELAND","latitudeAndLongitude":{"longitude":0.0,"latitude":0.0},"status":"NOT_FOUND","id":"52023","name":"DR.KAREN PALMER"} {"address":"CRUMLIN MEDICAL CLINIC, 1 ERRIGAL ROAD, DRIMNAGH, DUBLIN 12,IRELAND","latitudeAndLongitude":{"longitude":-6.3164447,"latitude":53.3218189},"status":"OK","id":"60186","name":"DR.OLIVER QUINN"} {"address":"PARK AVENUE MED CENTRE, 28A PARK AVENUE, SANDYMOUNT, DUBLIN 4,IRELAND","latitudeAndLongitude":{"longitude":0.0,"latitude":0.0},"status":"NOT_FOUND","id":"54110","name":"DR.SUZANNE WALSH"} {"address":"INCHICORE FAMILY DOCTORS, PCC, ST. MICHAEL'S ESTATE, INCHICORE, DUBLIN8,IRELAND","latitudeAndLongitude":{"longitude":0.0,"latitude":0.0},"status":"NOT_FOUND","id":"58336","name":"DR.CLIONA WILSON"} {"address":"PRIMARY CARE CENTRE, ST MICHAEL'S ESTATE, INCHICORE,DUBLIN 8.,IRELAND","latitudeAndLongitude":{"longitude":0.0,"latitude":0.0},"status":"NOT_FOUND","id":"58336","name":"DR.CLIONA WILSON"} {"address":"7 ALDERWOOD WAY, SPRINGFIELD EST, TALLAGHT, DUBLIN 24.,IRELAND","latitudeAndLongitude":{"longitude":0.0,"latitude":0.0},"status":"NOT_FOUND","id":"65070","name":"DR.ANVER AMOD"} {"address":"SWIFTBROOK MEDICAL CENTRE, TLC CTR,FORTUNESTOWN LANE, CITYWEST,DUBLIN 24,IRELAND","latitudeAndLongitude":{"longitude":0.0,"latitude":0.0},"status":"NOT_FOUND","id":"54079","name":"DR.BRIAN BLAKE"} {"address":"ORWELL MEDICAL CENTRE, ORWELL SHOPPING CENTRE, TEMPLEOGUE,DUBLIN 6W,IRELAND","latitudeAndLongitude":{"longitude":0.0,"latitude":0.0},"status":"NOT_FOUND","id":"60319","name":"DR.HAZEL BYRNE"} {"address":"64 THE PARK, KINGSWOOD HEIGHTS, TALLAGHT, DUBLIN 24,IRELAND","latitudeAndLongitude":{"longitude":-6.367710799999999,"latitude":53.3037269},"status":"OK","id":"65013","name":"DR.DERMOT DALY"} {"address":"HARRINGTON MEDICAL, THE MEATH PRIMARY CARE CENTRE, HEYTESBURYSTREET, DUBLIN 8,IRELAND","latitudeAndLongitude":{"longitude":0.0,"latitude":0.0},"status":"NOT_FOUND","id":"58091","name":"DR.TIMOTHY DELANEY"} {"address":"SUNDRIVE MEDICAL CENTRE, 36 SUNDRIVE ROAD, KIMMAGE, DUBLIN 12,IRELAND","latitudeAndLongitude":{"longitude":0.0,"latitude":0.0},"status":"NOT_FOUND","id":"60025","name":"DR.GEORGE DENNIS"} {"address":"64 THE PARK, KINGSWOOD HEIGHTS, TALLAGHT, DUBLIN 24,IRELAND","latitudeAndLongitude":{"longitude":-6.367710799999999,"latitude":53.3037269},"status":"OK","id":"62863","name":"DR.HUGH DURKIN"} {"address":"64 THE PARK, KINGSWOOD HEIGHTS, TALLAGHT, DUBLIN 24,IRELAND","latitudeAndLongitude":{"longitude":-6.367710799999999,"latitude":53.3037269},"status":"OK","id":"62590","name":"DR.LAURA DURKIN"} {"address":"AYLESBURY CLINIC, AYLESBURY SHOPPING CENTRE, TALLAGHT, DUBLIN 24,IRELAND","latitudeAndLongitude":{"longitude":-0.8084,"latitude":51.815606},"status":"OK","id":"64092","name":"DR.ANDREW JORDAN"} {"address":"SUNDRIVE MEDICAL CENTRE, 36 SUNDRIVE ROAD, KIMMAGE, DUBLIN 12,IRELAND","latitudeAndLongitude":{"longitude":0.0,"latitude":0.0},"status":"NOT_FOUND","id":"52569","name":"DR.CIARA JOYCE"} {"address":"CYPRESS CLINIC, 8 CYPRESS PARK, TEMPLEOGUE, DUBLIN 6W,IRELAND","latitudeAndLongitude":{"longitude":0.0,"latitude":0.0},"status":"NOT_FOUND","id":"52029","name":"DR.RONAN KEOGAN"} {"address":"OLD BAWN SURGERY, 59A OLD BAWN WAY, TALLAGHT, DUBLIN 24,IRELAND","latitudeAndLongitude":{"longitude":0.0,"latitude":0.0},"status":"NOT_FOUND","id":"63991","name":"DR.PETER KEOGH"} {"address":"TALLAGHT MEDICAL PRACTICE, 1 ALDERWOOD PARK, TALLAGHT, DUBLIN 24,IRELAND","latitudeAndLongitude":{"longitude":0.0,"latitude":0.0},"status":"NOT_FOUND","id":"52008","name":"DR.SIOBHAN KIERANS"} {"address":"14 WATERMEADOW PARK, OLD BAWN, TALLAGHT, DUBLIN 24,IRELAND","latitudeAndLongitude":{"longitude":0.0,"latitude":0.0},"status":"NOT_FOUND","id":"66443","name":"DR.ROLAND LING"} {"address":"AYLESBURY CLINIC, AYLESBURY SHOPPING CENTRE, TALLAGHT, DUBLIN 24,IRELAND","latitudeAndLongitude":{"longitude":-0.8084,"latitude":51.815606},"status":"OK","id":"62868","name":"DR.BRIAN MAHER"} {"address":"PARKHOUSE FAMILY PRACTICE, BROOKFIELD HEALTH CENTRE, TALLAGHT,DUBLIN 24,IRELAND","latitudeAndLongitude":{"longitude":0.0,"latitude":0.0},"status":"NOT_FOUND","id":"61009","name":"DR.DEBORAH MCGRANE"} {"address":"SWIFTBROOK MED CENTRE, TLC CENTRE,FORTUNESTOWN LANE, CITYWEST,DUBLIN 24,IRELAND","latitudeAndLongitude":{"longitude":0.0,"latitude":0.0},"status":"NOT_FOUND","id":"52571","name":"DR.AISLING NI SHUILLEABHAIN"} {"address":"MARY MERCER HEALTH CENTRE, FORTUNESTOWN RD, JOBSTOWN, TALLAGHT,DUBLIN 24,IRELAND","latitudeAndLongitude":{"longitude":0.0,"latitude":0.0},"status":"NOT_FOUND","id":"60101","name":"DR.THOMAS O'DOWD"} {"address":"SUNDRIVE MEDICAL CENTRE, 36 SUNDRIVE ROAD, KIMMAGE, DUBLIN 12,IRELAND","latitudeAndLongitude":{"longitude":0.0,"latitude":0.0},"status":"NOT_FOUND","id":"60020","name":"DR.CLIONA O'ROURKE"} {"address":"SPRINGFIELD MEDICAL CTR, 109 ALDERWOOD AVENUE, TALLAGHT, DUBLIN 24,IRELAND","latitudeAndLongitude":{"longitude":0.0,"latitude":0.0},"status":"NOT_FOUND","id":"52419","name":"DR.CONNOR SMITH"} {"address":"133 ST. PETER'S ROAD, WALKINSTOWN, DUBLIN 12,IRELAND","latitudeAndLongitude":{"longitude":-6.3271437,"latitude":53.3121845},"status":"OK","id":"54053","name":"DR.EAMON SPILLANE"} {"address":"133 ST. PETER'S ROAD, WALKINSTOWN, DUBLIN 12,IRELAND","latitudeAndLongitude":{"longitude":-6.3271437,"latitude":53.3121845},"status":"OK","id":"52595","name":"DR.EAMONN SPILLANE"} {"address":"AYLESBURY CLINIC, AYLESBURY SHOPPING CENTRE, TALLAGHT, DUBLIN 24,IRELAND","latitudeAndLongitude":{"longitude":-0.8084,"latitude":51.815606},"status":"OK","id":"64181","name":"DR.WILLIAM TWOMEY"} {"address":"CRUMLIN MEDICAL CLINIC, 1 ERRIGAL ROAD, DRIMNAGH, DUBLIN 12,IRELAND","latitudeAndLongitude":{"longitude":-6.3164447,"latitude":53.3218189},"status":"OK","id":"52058","name":"DR.ANNA WUCZYNSKA"} {"address":"THE MEDICAL CENTRE, LUCAN SHOPPING CENTRE, LUCAN, CO. DUBLIN,IRELAND","latitudeAndLongitude":{"longitude":-6.4498488,"latitude":53.3572085},"status":"OK","id":"66510","name":"DR.JOHN BARRETT"} {"address":"CASTLEKNOCK MED CENTRE, 1 AUBURN DRIVE, CASTLEKNOCK, DUBLIN 15,IRELAND","latitudeAndLongitude":{"longitude":-6.3584191,"latitude":53.3736519},"status":"OK","id":"52243","name":"DR.FIONA BELTON"} {"address":"PRIMACARE, BALLYOWEN LANE, LUCAN, CO. DUBLIN,IRELAND","latitudeAndLongitude":{"longitude":-6.4153356,"latitude":53.3539939},"status":"OK","id":"52429","name":"DR.SAHEERA BUTT"} {"address":"MEDICAL CENTRE, 1ST FLR, 5-6 MAIN STREET, LUCAN, CO. DUBLIN,IRELAND","latitudeAndLongitude":{"longitude":-6.4504515,"latitude":53.3567748},"status":"OK","id":"60214","name":"DR.DENISE COLLINS"} {"address":"BALLYOWEN CASTLE MED CTR, BALLYOWEN, LUCAN, CO. DUBLIN,IRELAND","latitudeAndLongitude":{"longitude":-6.424441799999999,"latitude":53.35090890000001},"status":"OK","id":"52314","name":"DR.GRACE CONROY"} {"address":"PRIMACARE MEDICAL CENTRE, BALLYOWN LANE, LUCAN, CO DUBLIN,IRELAND","latitudeAndLongitude":{"longitude":-6.4498488,"latitude":53.3572085},"status":"OK","id":"52572","name":"DR.ABU RABIA CORINA"} {"address":"NEILSTOWN SURGERY, UNIT 3, NEILSTOWN S.C, CLONDALKIN, DUBLIN 22,IRELAND","latitudeAndLongitude":{"longitude":0.0,"latitude":0.0},"status":"NOT_FOUND","id":"60891","name":"DR.BRIAN CRONIN"} {"address":"CENTRIC HEALTH OLD BAWN, UNIT 2-3 OLD BAWN S.C, TALLAGHT, DUBLIN 24,IRELAND","latitudeAndLongitude":{"longitude":0.0,"latitude":0.0},"status":"NOT_FOUND","id":"52447","name":"DR.JOANNE CULL"} {"address":"31 MANOR ROAD, PALMERSTOWN, DUBLIN 20.,IRELAND","latitudeAndLongitude":{"longitude":-6.3685925,"latitude":53.3510193},"status":"OK","id":"81566","name":"DR.HUGH ANTHONY DALY"} {"address":"BALLYCULLEN MEDICAL CTR, OLDCOURT CENTRE, FIRHOUSE, DUBLIN 24,IRELAND","latitudeAndLongitude":{"longitude":0.0,"latitude":0.0},"status":"NOT_FOUND","id":"54044","name":"DR.KAREN GIBNEY"} {"address":"FINNSTOWN MEDICAL CENTRE, LUCAN, CO DUBLIN,IRELAND","latitudeAndLongitude":{"longitude":-6.4498488,"latitude":53.3572085},"status":"OK","id":"65130","name":"DR.TERESA GOLDEN"} {"address":"PRIMACARE MEDICAL CENTRE, BALLYOWEN LANE, LUCAN, CO. DUBLIN,IRELAND","latitudeAndLongitude":{"longitude":-6.4153356,"latitude":53.3539939},"status":"OK","id":"52379","name":"DR.ANDREW KELLY"} {"address":"DODSBORO CLINIC, WOODVIEW CRT, TANDYS LANE, DODSBORO,LUCAN, CODUBLIN,IRELAND","latitudeAndLongitude":{"longitude":0.0,"latitude":0.0},"status":"NOT_FOUND","id":"63189","name":"DR.STUART KENNY"} {"address":"CLONDALKIN/LUCAN, TREATMENT CTR, ST LOMANS, RD, LUCAN, CO DUBLIN,IRELAND","latitudeAndLongitude":{"longitude":-6.4101048,"latitude":53.35411850000001},"status":"OK","id":"58027","name":"DR.HEMANT KUMAR"} {"address":"ABOVE THE GIRAFFE CRECHE, BALLYOWEN S.C., LUCAN, CO DUBLIN,IRELAND","latitudeAndLongitude":{"longitude":-6.4498488,"latitude":53.3572085},"status":"OK","id":"64485","name":"DR.JAMES LEE"} {"address":"MEDICAL CENTRE, 1ST FL, 5-6 MAIN STREET, LUCAN, CO DUBLIN,IRELAND","latitudeAndLongitude":{"longitude":-6.4504515,"latitude":53.3567748},"status":"OK","id":"60945","name":"DR.DAVID LOMBARD"} {"address":"11 BALLYOWEN ROAD, LUCAN, CO. DUBLIN.,IRELAND","latitudeAndLongitude":{"longitude":-6.420481,"latitude":53.35484049999999},"status":"OK","id":"81604","name":"DR.MATTHEW JOHN LYNCH"} {"address":"CLADDAGH SURGERY, BALLYFERMOT PCC, BALLFERMOT, DUBLIN 10,IRELAND","latitudeAndLongitude":{"longitude":0.0,"latitude":0.0},"status":"NOT_FOUND","id":"52624","name":"DR.LISA MC GRATH"} {"address":"PRIMACARE MEDICAL/DENTAL, CITY WEST SHOPPING CENTRE, SAGGART, CO.DUBLIN,IRELAND","latitudeAndLongitude":{"longitude":-6.4431841,"latitude":53.28083969999999},"status":"OK","id":"52308","name":"DR.ORNA MCLAUGHLIN"} {"address":"314B BALLYFERMOT ROAD, BALLYFERMOT, DUBLIN 10,IRELAND","latitudeAndLongitude":{"longitude":-6.35445,"latitude":53.34254809999999},"status":"AMBIGUOUS","id":"55325","name":"DR.NASEEMA MOORAD"} {"address":"GLENFIELD FAMILY PRACTICE, 20 GLENFIELD AVENUE, CLONDALKIN, DUBLIN 22,IRELAND","latitudeAndLongitude":{"longitude":0.0,"latitude":0.0},"status":"NOT_FOUND","id":"61763","name":"DR.JOHN MURPHY"} {"address":"INCHICORE FAMILY PRCT, ST MICHAEL'S ESTATE, DUBLIN 8,IRELAND","latitudeAndLongitude":{"longitude":0.0,"latitude":0.0},"status":"NOT_FOUND","id":"52475","name":"DR.MARTIN NOLAN"} {"address":"HUNTSTOWN MEDICAL CENTRE, HUNTSTOWN WAY, DUBLIN 15,IRELAND","latitudeAndLongitude":{"longitude":0.0,"latitude":0.0},"status":"NOT_FOUND","id":"52529","name":"DR.SARAH LOUISE O'CONNELL"} {"address":"14 PALMERSTOWN PARK, KENNELSFORT ROAD, PALMERSTOWN, DUBLIN 20,IRELAND","latitudeAndLongitude":{"longitude":-6.3732662,"latitude":53.354112},"status":"AMBIGUOUS","id":"63185","name":"DR.CONOR O'HANLON"} {"address":"THE SURGERY, 14 PALMERSTOWN PARK, PALMERSTOWN, DUBLIN 20,IRELAND","latitudeAndLongitude":{"longitude":0.0,"latitude":0.0},"status":"NOT_FOUND","id":"61170","name":"DR.JOSEPH A. O'NEILL"} {"address":"THE DODSBORO CLINIC, TANDYS LANE, DODSBORO, LUCAN, CO. DUBLIN,IRELAND","latitudeAndLongitude":{"longitude":-6.4498488,"latitude":53.3572085},"status":"OK","id":"52446","name":"DR.HELENA O'REGAN"} {"address":"PALMERSTOWN MED CENTRE, ALDI COMPLEX OLD LUCAN RD, PALMERSTOWN,DUBLIN 20,IRELAND","latitudeAndLongitude":{"longitude":0.0,"latitude":0.0},"status":"NOT_FOUND","id":"66155","name":"DR.FAYYAZ AHMED SHARIF"} {"address":"DODSBORO CLINIC, WOODVIEW COURT, DODSBORO, LUCAN, CO. DUBLIN,IRELAND","latitudeAndLongitude":{"longitude":-6.4498488,"latitude":53.3572085},"status":"OK","id":"52298","name":"DR.AILBHE SMYTH"} {"address":"19 ASHWOOD ROAD, CLONDALKIN, DUBLIN 22.,IRELAND","latitudeAndLongitude":{"longitude":-6.410742099999999,"latitude":53.3261315},"status":"OK","id":"61251","name":"DR.MARIA WILSON"} {"address":"NAAS GP CENTRE, DUBLIN ROAD,IRELAND","latitudeAndLongitude":{"longitude":-7.788964300000001,"latitude":53.7239724},"status":"AMBIGUOUS","id":"61307","name":"DR.JOHN KEHOE"} {"address":"NAAS GENERAL PRACTICE, DUBLIN ROAD, NAAS,CO.KILDARE,IRELAND","latitudeAndLongitude":{"longitude":-6.6529349,"latitude":53.2242865},"status":"OK","id":"52482","name":"DR.MARIE MEEHAN"} {"address":"LONGFORD MEDICAL CENTRE, DUBLIN ROAD,IRELAND","latitudeAndLongitude":{"longitude":-7.7951597,"latitude":53.7267734},"status":"OK","id":"52202","name":"DR.SYED S. ALI"} {"address":"BELLVIEW CLINIC, OLD DUBLIN ROAD, MULLINGAR,IRELAND","latitudeAndLongitude":{"longitude":-7.3169333,"latitude":53.5245408},"status":"OK","id":"52205","name":"DR.RACHEL CARTLIDGE EIGHAN"} {"address":"BELLVIEW CLINIC, OLD DUBLIN ROAD, MULLINGAR,IRELAND","latitudeAndLongitude":{"longitude":-7.3169333,"latitude":53.5245408},"status":"OK","id":"52596","name":"DR.YVONNE DAWSON"} {"address":"BELLVIEW CLINIC, OLD DUBLIN ROAD, MULLINGAR,IRELAND","latitudeAndLongitude":{"longitude":-7.3169333,"latitude":53.5245408},"status":"OK","id":"52248","name":"DR.PAULA DONNELLY"} {"address":"BELLVIEW CLINIC, OLD DUBLIN ROAD, MULLINGAR, CO. WESTMEATH,IRELAND","latitudeAndLongitude":{"longitude":-7.3169333,"latitude":53.5245408},"status":"OK","id":"52631","name":"DR.PAULA DONNELLY"} {"address":"BELLVIEW CLINIC, OLD DUBLIN RD.,IRELAND","latitudeAndLongitude":{"longitude":0.0,"latitude":0.0},"status":"NOT_FOUND","id":"52416","name":"DR.NEIL HEALY"} {"address":"EDGEWORTHSTOWN HC, DUBLIN RD,IRELAND","latitudeAndLongitude":{"longitude":-7.607203500000001,"latitude":53.6910999},"status":"OK","id":"70785","name":"DR.BERTIE J. SHARKEY"} {"address":"DOCTOR'S SURGERY, 411 GRIFFITH AVENUE, GLASNEVIN, DUBLIN 9,IRELAND","latitudeAndLongitude":{"longitude":0.0,"latitude":0.0},"status":"NOT_FOUND","id":"60265","name":"DR.KAREN AYLWARD"} {"address":"OAKWOOD MEDICAL CLINIC, CASTLECOURT S.C, CASTLEKNOCK, DUBLIN 15,IRELAND","latitudeAndLongitude":{"longitude":0.0,"latitude":0.0},"status":"NOT_FOUND","id":"60438","name":"DR.NICOLA BLACK"} {"address":"GRIFFITH AVE PRACTICE, 411 GRIFFITH AVENUE, GLASNEVIN, DUBLIN 9,IRELAND","latitudeAndLongitude":{"longitude":0.0,"latitude":0.0},"status":"NOT_FOUND","id":"61379","name":"DR.JOHN MARK BURBRIDGE"} {"address":"GENERATION HLT MED CLINIC, UNIT 9A, CASTLECOURT S.C,CASTLEKNOCK,DUBLIN 15,IRELAND","latitudeAndLongitude":{"longitude":0.0,"latitude":0.0},"status":"NOT_FOUND","id":"60436","name":"DR.NINA BYRNES"} {"address":"THE BERKELEY CLINIC, 4 BERKELEY STREET, DUBLIN 7.,IRELAND","latitudeAndLongitude":{"longitude":-6.2677974,"latitude":53.3569783},"status":"OK","id":"64775","name":"DR.CATHERINE COLEMAN"} {"address":"THE CREMORE CLINIC, 66 BALLYGALL ROAD EAST, GLASNEVIN, DUBLIN 11,IRELAND","latitudeAndLongitude":{"longitude":0.0,"latitude":0.0},"status":"NOT_FOUND","id":"61930","name":"DR.FIONA DENNEHY"} {"address":"CLUNE ROAD MEDICAL CENTRE, 23 CLUNE ROAD, FINGLAS, DUBLIN 11,IRELAND","latitudeAndLongitude":{"longitude":0.0,"latitude":0.0},"status":"NOT_FOUND","id":"52440","name":"DR.BIANCA DUNNE"} {"address":"THE SURGERY, UNIT 331, THE BLANCHARDSTOWN CENTRE,BLANCHARDSTOWN, DUBLIN 15,IRELAND","latitudeAndLongitude":{"longitude":0.0,"latitude":0.0},"status":"NOT_FOUND","id":"54107","name":"DR.MARION DYER"} {"address":"CABRA MEDICAL CENTRE, 109 CABRA ROAD, CABRA, DUBLIN 7,IRELAND","latitudeAndLongitude":{"longitude":-6.2909939,"latitude":53.36160839999999},"status":"OK","id":"61437","name":"DR.RICHARD ENNIS"} {"address":"5 PINEWOOD HOUSE, HUNTSTOWN WAY, HUNTSTOWN, DUBLIN 15,IRELAND","latitudeAndLongitude":{"longitude":-6.4079182,"latitude":53.4017378},"status":"OK","id":"60528","name":"DR.SUZANNE FARRELL"} {"address":"VILLAGE MEDICAL CENTRE, 45 MAIN STREET, FINGLAS, DUBLIN 11,IRELAND","latitudeAndLongitude":{"longitude":0.0,"latitude":0.0},"status":"NOT_FOUND","id":"66508","name":"DR.WILLIAM J. FEGAN"} {"address":"OAKLAND CLINIC, UNIT 1, BLOCK D, TYRELLSTOWN, DUBLIN 15,IRELAND","latitudeAndLongitude":{"longitude":-122.2711137,"latitude":37.8043637},"status":"AMBIGUOUS","id":"52438","name":"DR.AINE FITZPATRICK"} {"address":"2 BROOKHAVEN DRIVE, BLANCHARDSTOWN, DUBLIN 15,IRELAND","latitudeAndLongitude":{"longitude":-6.3840128,"latitude":53.398681},"status":"OK","id":"52542","name":"DR.SUSAN FLOYD"} {"address":"THE MERIDAN CLINIC, ROSELAWN SHOPPING CENTRE, BLANCHARDSTOWN,DUBLIN 15,IRELAND","latitudeAndLongitude":{"longitude":0.0,"latitude":0.0},"status":"NOT_FOUND","id":"66893","name":"DR.JACQUELINE FURLONG-MACCARTHY"} {"address":"CENTRIC HEALTH NAVAN RD, ARAS SLAINTE NAVAN RD PCC, NAVAN ROAD,DUBLIN 7,IRELAND","latitudeAndLongitude":{"longitude":0.0,"latitude":0.0},"status":"NOT_FOUND","id":"64475","name":"DR.MICHAEL HAYES"} {"address":"THE MERIDIAN CLINIC ONGAR, 1 THE AVENUE, ONGAR VILLAGE, DUBLIN 15,IRELAND","latitudeAndLongitude":{"longitude":0.0,"latitude":0.0},"status":"NOT_FOUND","id":"52138","name":"DR.ANDREW JACKSON"} {"address":"TYRRELSTOWN MED CENTRE, TYRRELSTOWN, DUBLIN 15,IRELAND","latitudeAndLongitude":{"longitude":0.0,"latitude":0.0},"status":"NOT_FOUND","id":"52483","name":"DR.MUHAMMAD JAWAD ARAB"} {"address":"MERIDIAN CLINIC, ROSELAWN SHOPPING CENTRE, BLANCHARDSTOWN, DUBLIN15,IRELAND","latitudeAndLongitude":{"longitude":0.0,"latitude":0.0},"status":"NOT_FOUND","id":"61160","name":"DR.EAMONN KING"} {"address":"OAKLAND CLINIC, UNIT 1, TYRRELSTOWN S.C, TYRRELSTOWN, DUBLIN 15,IRELAND","latitudeAndLongitude":{"longitude":-122.2711137,"latitude":37.8043637},"status":"AMBIGUOUS","id":"64560","name":"DR.TORIALAI KOHISTANI"} {"address":"BUILDING 3, SECOND FLOOR, BLANCHARDSTOWN PCC, GROVE COURT, DUBLIN15,IRELAND","latitudeAndLongitude":{"longitude":0.0,"latitude":0.0},"status":"NOT_FOUND","id":"63950","name":"DR.MUKESH LALLOO"} {"address":"CENTRIC HEALTH, NAVAN ROAD MED & DENTAL PCC, NAVAN ROAD, DUBLIN 7,IRELAND","latitudeAndLongitude":{"longitude":0.0,"latitude":0.0},"status":"NOT_FOUND","id":"52623","name":"DR.ROISIN LYONS"} {"address":"CENTRIC HEALTH , PRIMARY CARE CTR, NAVAN RD, DUBLIN 7,IRELAND","latitudeAndLongitude":{"longitude":0.0,"latitude":0.0},"status":"NOT_FOUND","id":"60395","name":"DR.ROISIN LYONS"} {"address":"CASTLEKNOCK MED CTR, 1 AUBURN DRIVE, CASTLEKNOCK, DUBLIN 15,IRELAND","latitudeAndLongitude":{"longitude":-6.3584191,"latitude":53.3736519},"status":"OK","id":"52462","name":"DR.JULIE MACFADDEN"} {"address":"MANOR ST. FAMILY PRACTICE, 41 MANOR STREET , DUBLIN 7,IRELAND","latitudeAndLongitude":{"longitude":0.0,"latitude":0.0},"status":"NOT_FOUND","id":"62375","name":"DR.DESMOND MAGUIRE"} {"address":"MEDICAL CENTRE, UNIT 3, MAIN STREET, BLANCHARDSTOWN, DUBLIN 15,IRELAND","latitudeAndLongitude":{"longitude":0.0,"latitude":0.0},"status":"NOT_FOUND","id":"52522","name":"DR.ANAS MANSOUR"} {"address":"MEDICAL CENTRE, UNIT 3, GROUND FLOOR, MAIN STREET, BLANCHARDSTOWN,DUBLIN 15,IRELAND","latitudeAndLongitude":{"longitude":0.0,"latitude":0.0},"status":"NOT_FOUND","id":"55921","name":"DR.ANAS MANSOUR"} {"address":"KIRKFIELD CLINIC, GROVE COURT P.C.C, BLANCHARDSTOWN, DUBLIN 15,IRELAND","latitudeAndLongitude":{"longitude":0.0,"latitude":0.0},"status":"NOT_FOUND","id":"60227","name":"DR.PATRICK MCCARTHY"} {"address":"OAKWOOD MEDICAL CLINIC, 1 KIRKFIELD COTTAGES, CLONSILLA ROAD,DUBLIN 15,IRELAND","latitudeAndLongitude":{"longitude":0.0,"latitude":0.0},"status":"NOT_FOUND","id":"54054","name":"DR.KATE MCCOY"} {"address":"OAKWOOD MEDICAL CLINIC, 9 CASTLECOURT SHOPPING CENTRE,CASTLEKNOCK, DUBLIN 15,IRELAND","latitudeAndLongitude":{"longitude":0.0,"latitude":0.0},"status":"NOT_FOUND","id":"54054","name":"DR.KATE MCCOY"} {"address":"FINGLAS FAMILY PRACTICE, BALLYGALL ROAD WEST, FINGLAS, DUBLIN 11,IRELAND","latitudeAndLongitude":{"longitude":-6.298400699999999,"latitude":53.390325},"status":"OK","id":"60390","name":"DR.KATRINA MCCRORY"} {"address":"THE HEALTHWELL CLINIC, CLONSILLA VILLAGE, DUBLIN 15,IRELAND","latitudeAndLongitude":{"longitude":0.0,"latitude":0.0},"status":"NOT_FOUND","id":"52638","name":"DR.JOHN MCDERMOTT"} {"address":"MILLIGAN FAMILY PRACTICE, THE MAPLE CENTRE, NAVAN ROAD, DUBLIN 7,IRELAND","latitudeAndLongitude":{"longitude":0.0,"latitude":0.0},"status":"NOT_FOUND","id":"66130","name":"DR.SUZANNE MILLIGAN"} {"address":"THE CREMORE CLINIC, 66 BALLYGALL ROAD EAST, FINGLAS, DUBLIN 11,IRELAND","latitudeAndLongitude":{"longitude":0.0,"latitude":0.0},"status":"NOT_FOUND","id":"52101","name":"DR.IAN MORRISON"} {"address":"FINGLAS FAMILY PRACTICE, BALLYGALL ROAD WEST, FINGLAS, DUBLIN 11,IRELAND","latitudeAndLongitude":{"longitude":-6.298400699999999,"latitude":53.390325},"status":"OK","id":"60500","name":"DR.FIONA MOYNIHAN"} {"address":"THE CREMORE CLINIC, 66 BALLYGALL ROAD EAST, GLASNEVIN, DUBLIN 11,IRELAND","latitudeAndLongitude":{"longitude":0.0,"latitude":0.0},"status":"NOT_FOUND","id":"64734","name":"DR.NUALA O'FARRELL"} {"address":"VILLAGE MEDICAL CENTRE, 45 MAIN STREET, FINGLAS, DUBLIN 11,IRELAND","latitudeAndLongitude":{"longitude":0.0,"latitude":0.0},"status":"NOT_FOUND","id":"61840","name":"DR.PATRICK C. O'GORMAN"} {"address":"WILLOW PARK MEDICAL CTR, 72 WILLOW PARK CRESCENT, FINGLAS, DUBLIN 11,IRELAND","latitudeAndLongitude":{"longitude":-97.6505822,"latitude":32.7626286},"status":"OK","id":"52106","name":"DR.AIDAN O'HORA"} {"address":"HUNTSTOWN MEDICAL CENTRE, 5 PINEWOOD HOUSE, HUNTSTOWN WAY,DUBLIN 15,IRELAND","latitudeAndLongitude":{"longitude":0.0,"latitude":0.0},"status":"NOT_FOUND","id":"66580","name":"DR.SIOBHAN O'SULLIVAN"} {"address":"VILLAGE MEDICAL CENTRE, 45-47 MAIN STEET, FINGLAS EAST, DUBLIN 11,IRELAND","latitudeAndLongitude":{"longitude":0.0,"latitude":0.0},"status":"NOT_FOUND","id":"52406","name":"DR.ANGELA PARVU"} {"address":"LITTLEPACE MEDICAL CENTRE, LITTLEPACE SHOPPING MALL, CLONEE, DUBLIN15,IRELAND","latitudeAndLongitude":{"longitude":0.0,"latitude":0.0},"status":"NOT_FOUND","id":"60373","name":"DR.JOHN PETERS"} {"address":"CENTRIC HEALTH, NAVAN ROAD P.C.C, NAVAN ROAD, DUBLIN 7,IRELAND","latitudeAndLongitude":{"longitude":0.0,"latitude":0.0},"status":"NOT_FOUND","id":"52424","name":"DR.SHANE QUIGLEY"} {"address":"GLASNEVIN FAMILY PRACTICE, 11 FINGLAS ROAD, HART'S CORNER, DUBLIN 11,IRELAND","latitudeAndLongitude":{"longitude":0.0,"latitude":0.0},"status":"NOT_FOUND","id":"52153","name":"DR.SARAH RINEY"} {"address":"DOCTOR'S SURGERY, 411 GRIFFITH AVENUE, GLASNEVIN, DUBLIN 9,IRELAND","latitudeAndLongitude":{"longitude":0.0,"latitude":0.0},"status":"NOT_FOUND","id":"60268","name":"DR.ROBERT SCANLON"} {"address":"MANOR STREET FAMILY PRACTICE, 41 MANOR STREET, STONEYBATTER,DUBLIN 7,IRELAND","latitudeAndLongitude":{"longitude":0.0,"latitude":0.0},"status":"NOT_FOUND","id":"52567","name":"DR.AOIFE STORAN"} {"address":"VILLAGE MEDICAL CENTRE, 45 MAIN STREET, FINGLAS, DUBLIN 11,IRELAND","latitudeAndLongitude":{"longitude":0.0,"latitude":0.0},"status":"NOT_FOUND","id":"65242","name":"DR.EUGENE SWAINE"} {"address":"COLLEGE GATE CLINIC, 123 BALLYMUN ROAD, GLASNEVIN, DUBLIN 9,IRELAND","latitudeAndLongitude":{"longitude":0.0,"latitude":0.0},"status":"NOT_FOUND","id":"52457","name":"DR.SHAFRIZAN TAJRI"} {"address":"23 CASTLEKNOCK AVEUNE, LAUREL LODGE, CASTLEKNOCK, DUBLIN 15,IRELAND","latitudeAndLongitude":{"longitude":-6.3788101,"latitude":53.3794366},"status":"AMBIGUOUS","id":"60370","name":"DR.AIDAN WARD"} {"address":"23 CASTLEKNOCK AVENUE, LAUREL LODGE, CASTLEKNOCK DUBLIN 15,IRELAND","latitudeAndLongitude":{"longitude":-6.3788101,"latitude":53.3794366},"status":"AMBIGUOUS","id":"63975","name":"DR.AIDAN WARD"} {"address":"THE MEDICAL CENTRE, OMNI PARK S.C., SANTRY, DUBLIN 9.,IRELAND","latitudeAndLongitude":{"longitude":0.0,"latitude":0.0},"status":"NOT_FOUND","id":"60261","name":"DR.MICHAEL ABOUD"} {"address":"THE AVENUE FAMILY PRACTICE, 63-67 COLLINS AVENUE EAST, DUBLIN 5,IRELAND","latitudeAndLongitude":{"longitude":0.0,"latitude":0.0},"status":"NOT_FOUND","id":"81826","name":"DR.JOHN BALL"} {"address":"53 MOUNTJOY STREET FAMILY PRCT, 53 MOUNTJOY STREET, DUBLIN 7,IRELAND","latitudeAndLongitude":{"longitude":-6.2688039,"latitude":53.35509080000001},"status":"OK","id":"58032","name":"DR.OLIVIA BARRY"} {"address":"632 SOUTH CIRCULAR ROAD, KILMAINHAM MEDICAL CENTRE, DUBLIN 8,IRELAND","latitudeAndLongitude":{"longitude":0.0,"latitude":0.0},"status":"NOT_FOUND","id":"52500","name":"DR.LUCY BELTON"} {"address":"COLLEGE GATE CLINIC, 123 BALLYMUN ROAD, GLASNEVIN, DUBLIN 9,IRELAND","latitudeAndLongitude":{"longitude":0.0,"latitude":0.0},"status":"NOT_FOUND","id":"52579","name":"DR.INTAN BESRI"} {"address":"FAIRVIEW MEDICAL CENTRE, 37-39 FAIRVIEW STRAND, FAIRVIEW, DUBLIN 3,IRELAND","latitudeAndLongitude":{"longitude":0.0,"latitude":0.0},"status":"NOT_FOUND","id":"64434","name":"DR.FRANK BRODERICK"} {"address":"THE AVENUE FAMILY PRACTICE, 63-67 COLLINS AVENUE EAST, DUBLIN 5,IRELAND","latitudeAndLongitude":{"longitude":0.0,"latitude":0.0},"status":"NOT_FOUND","id":"61070","name":"DR.IAN BUCKOWSKI"} {"address":"THE GRANGE CLINIC, GRANGE ROAD, DONAGHMEDE, DUBLIN 13,IRELAND","latitudeAndLongitude":{"longitude":-6.164200999999999,"latitude":53.3946277},"status":"OK","id":"52582","name":"DR.BRIAN CAHILL"} {"address":"BEAUMONT PARK CLINIC, BEAUMONT WOODS, DUBLIN 9.,IRELAND","latitudeAndLongitude":{"longitude":0.0,"latitude":0.0},"status":"NOT_FOUND","id":"66702","name":"DR.JOHN CASEY"} {"address":"10 UPPER DRUMCONDRA ROAD, (ABOVE UNICARE), DRUMCONDRA, DUBLIN 9,IRELAND","latitudeAndLongitude":{"longitude":0.0,"latitude":0.0},"status":"NOT_FOUND","id":"60433","name":"DR.TERESA COLL"} {"address":"BALLYMUN FAMILY PRACTICE, FIRST FLOOR CIVIC CENTRE, BALLYMUN, DUBLIN9,IRELAND","latitudeAndLongitude":{"longitude":0.0,"latitude":0.0},"status":"NOT_FOUND","id":"61416","name":"DR.TARA CONLON"} {"address":"FAIRVIEW MEDICAL CENTRE, 37-39 FAIRVIEW STRAND, FAIRVIEW, DUBLIN 3,IRELAND","latitudeAndLongitude":{"longitude":0.0,"latitude":0.0},"status":"NOT_FOUND","id":"60970","name":"DR.RONAN CORMICAN"} {"address":"MARINO MEDICAL CENTRE, 144 PHILIPSBURG AVE, FAIRVIEW, DUBLIN 3,IRELAND","latitudeAndLongitude":{"longitude":0.0,"latitude":0.0},"status":"NOT_FOUND","id":"54082","name":"DR.DEARBHLA DIGNAM"} {"address":"TALBOT STREET MED CENTRE, IRISH LIFE MALL, TALBOT STREET, DUBLIN 1,IRELAND","latitudeAndLongitude":{"longitude":0.0,"latitude":0.0},"status":"NOT_FOUND","id":"54159","name":"DR.EDEL DOMINIQUE"} {"address":"MARINO MEDICAL CENTRE, 144 PHILIPSBURGH AVE, FAIRVIEW, DUBLIN 3,IRELAND","latitudeAndLongitude":{"longitude":0.0,"latitude":0.0},"status":"NOT_FOUND","id":"64576","name":"DR.TARA GALLIGAN"} {"address":"BALLYMUN FAMILY PRACTICE, 1ST FLOOR, CIVIC CENTRE, BALLYMUN, DUBLIN 9,IRELAND","latitudeAndLongitude":{"longitude":0.0,"latitude":0.0},"status":"NOT_FOUND","id":"60095","name":"DR.DAVID GIBNEY"} {"address":"BALLYMUN FAMILY PRACTICE, FIRST FLOOR, CIVIC CENTRE, BALLYMUN,DUBLIN 9,IRELAND","latitudeAndLongitude":{"longitude":0.0,"latitude":0.0},"status":"NOT_FOUND","id":"60856","name":"DR.BRID HOLLYWOOD"} {"address":"SUMMERHILL FAMILY PRACTICE, SUMMERHILL HEALTH CENTRE, 90-92SUMMERHILL, DUBLIN 1,IRELAND","latitudeAndLongitude":{"longitude":0.0,"latitude":0.0},"status":"NOT_FOUND","id":"52560","name":"DR.COLLEEN HOPKINS"} {"address":"GROUND FLOOR, CIVIC CTR, MAIN STREET, BALLYMUN, DUBLIN 9,IRELAND","latitudeAndLongitude":{"longitude":0.0,"latitude":0.0},"status":"NOT_FOUND","id":"60530","name":"DR.DEIRDRE HORNECK"} {"address":"BALLYMUN FAMILY PRACTICE, FIRST FLOOR, CIVIC CENTRE, BALLYMUN,DUBLIN 9,IRELAND","latitudeAndLongitude":{"longitude":0.0,"latitude":0.0},"status":"NOT_FOUND","id":"61385","name":"DR.MARY JENNINGS"} {"address":"TALBOT STREET MED CENTRE, IRISH LIFE MALL, TALBOT STREET, DUBLIN 1,IRELAND","latitudeAndLongitude":{"longitude":0.0,"latitude":0.0},"status":"NOT_FOUND","id":"54161","name":"DR.SUZANNE KENNY"} {"address":"MOUNTJOY FAMILY PRACTICE, BAKERS YARD, NTH PORTLAND ST, DUBLIN 1,IRELAND","latitudeAndLongitude":{"longitude":0.0,"latitude":0.0},"status":"NOT_FOUND","id":"60913","name":"DR.COLM MICHAEL KILLEEN"} {"address":"CLONTARF FAMILY PRACTICE, 14 KINCORA AVENUE, CLONTARF, DUBLIN 3,IRELAND","latitudeAndLongitude":{"longitude":0.0,"latitude":0.0},"status":"NOT_FOUND","id":"52388","name":"DR.SINEAD MACEOIN"} {"address":"GROUND FLOOR, CIVIC OFFICES, MAIN ST,, BALLYMUN, DUBLIN 9.,IRELAND","latitudeAndLongitude":{"longitude":0.0,"latitude":0.0},"status":"NOT_FOUND","id":"60583","name":"DR.NEASA MCDONAGH"} {"address":"SANTRYGP.IE CLINIC, NORTHWOOD HSE, NORTHWOOD, BUS. PK, SANTRY,DUBLIN 9,IRELAND","latitudeAndLongitude":{"longitude":0.0,"latitude":0.0},"status":"NOT_FOUND","id":"58026","name":"DR.KAREN MCGRATH"} {"address":"EASTWALL MEDICAL CENTRE, 145 CHURCH ROAD , EASTWALL, DUBLIN 3,IRELAND","latitudeAndLongitude":{"longitude":0.0,"latitude":0.0},"status":"NOT_FOUND","id":"81892","name":"DR.JOSEPH MURPHY"} {"address":"BALLYMUN FAMILY PRACTICE, 1 FLOOR, BALLYMUN CIVIC CENTRE, BALLYMUN,DUBLIN 11,IRELAND","latitudeAndLongitude":{"longitude":0.0,"latitude":0.0},"status":"NOT_FOUND","id":"52521","name":"DR.ALIYA RAHIM"} {"address":"BEAUMONT PARK CLINIC, BEAUMONT WOODS, BEAUMONT, DUBLIN 9,IRELAND","latitudeAndLongitude":{"longitude":0.0,"latitude":0.0},"status":"NOT_FOUND","id":"61302","name":"DR.GEORGE ROBERTS"} {"address":"MOUNTJOY FAMILY PRACTICE, 2-3 BAKER'S YARD, PORTLAND ST NTH, DUBLIN 1,IRELAND","latitudeAndLongitude":{"longitude":0.0,"latitude":0.0},"status":"NOT_FOUND","id":"61413","name":"DR.GERARD A. ROEBUCK"} {"address":"SUMMERHILL FAMILY PRACTICE, 90-92 SUMMERHILL, DUBLIN 1,IRELAND","latitudeAndLongitude":{"longitude":0.0,"latitude":0.0},"status":"NOT_FOUND","id":"52583","name":"DR.BRID SHANAHAN"} {"address":"DOCTOR'S SURGERY, 384 CLONTARF ROAD, DUBLIN 3,IRELAND","latitudeAndLongitude":{"longitude":0.0,"latitude":0.0},"status":"NOT_FOUND","id":"54084","name":"DR.DALIJA VASKIENE"} {"address":"VERNON MEDICAL CLINIC, 67A VERNON AVENUE, CLONTARF, DUBLIN 3,IRELAND","latitudeAndLongitude":{"longitude":0.0,"latitude":0.0},"status":"NOT_FOUND","id":"61445","name":"DR.MARY WARD"} {"address":"SUTTON CROSS SURGERY, SUITE 1, SUPERQUINN S.C., SUTTON CROSS, DUBLIN13,IRELAND","latitudeAndLongitude":{"longitude":-0.193961,"latitude":51.3614279},"status":"AMBIGUOUS","id":"52050","name":"DR.JOHN ALLMAN"} {"address":"PRIMACARE, APPLEWOOD MED, APPLEWOOD VILLAGE, SWORDS, CO. DUBLIN,IRELAND","latitudeAndLongitude":{"longitude":-6.233449999999999,"latitude":53.4702159},"status":"OK","id":"52493","name":"DR.NAHED ARNOUS"} {"address":"VILLAGE MEDICAL CENTRE, 45-47 MAIN STREET, FINGLAS, DUBLIN 11,IRELAND","latitudeAndLongitude":{"longitude":0.0,"latitude":0.0},"status":"NOT_FOUND","id":"52541","name":"DR.ALVISE CALAMAI"} {"address":"UNIT 4, BAYSIDE SHOPPING CENTRE, BAYSIDE, DUBLIN 13,IRELAND","latitudeAndLongitude":{"longitude":0.0,"latitude":0.0},"status":"NOT_FOUND","id":"60387","name":"DR.MICHELE CARAHER"} {"address":"THE GRANGE CLINIC, GRANGE ROAD, DONAGHMEDE, DUBLIN 13,IRELAND","latitudeAndLongitude":{"longitude":-6.164200999999999,"latitude":53.3946277},"status":"OK","id":"52585","name":"DR.HELEN CASEY"} {"address":"DONABATE CLINIC, WARRINGTON MEWS, DONABATE CO. DUBLIN,IRELAND","latitudeAndLongitude":{"longitude":-6.1504482,"latitude":53.4853365},"status":"OK","id":"52241","name":"DR.AVRIL COGAN"} {"address":"CLANNAD MEDICAL CENTRE, FIRST FLOOR, KILBARRACK, DUBLIN 5,IRELAND","latitudeAndLongitude":{"longitude":0.0,"latitude":0.0},"status":"NOT_FOUND","id":"66359","name":"DR.SARAH COGHLAN"} {"address":"20 THE RISE, MELROSE PARK, SWORDS, CO. DUBLIN,IRELAND","latitudeAndLongitude":{"longitude":-6.202107700000001,"latitude":53.4459362},"status":"OK","id":"60593","name":"DR.MICHAEL COLCLOUGH"} {"address":"WINDMILL MEDICAL CENTRE, WINDMILL LANE, NEW ST, SKERRIES, CO. DUBLIN,IRELAND","latitudeAndLongitude":{"longitude":-6.109685199999999,"latitude":53.5788002},"status":"OK","id":"55919","name":"DR.CLAIRE CONNOLLY"} {"address":"TONLEGEE MEDICAL PRACTICE, 38 TONLEGEE ROAD, DUBLIN 5,IRELAND","latitudeAndLongitude":{"longitude":0.0,"latitude":0.0},"status":"NOT_FOUND","id":"52598","name":"DR.ANTHONY CROSSE"} {"address":"MALAHIDE FAMILY PRACTICE, 15 STRAND STREET, MALAHIDE,CO DUBLIN,IRELAND","latitudeAndLongitude":{"longitude":-6.1544343,"latitude":53.452071},"status":"OK","id":"54018","name":"DR.JOANNE DALY"} {"address":"THE PLAZA CLINIC, MAIN STREET, SWORDS, CO DUBLIN,IRELAND","latitudeAndLongitude":{"longitude":-6.2208821,"latitude":53.4575444},"status":"OK","id":"60323","name":"DR.ANNE DEVITT"} {"address":"BALBRIGGAN MEDICAL CENTRE, CLONARD STREET, BALBRIGGAN, CO. DUBLIN,IRELAND","latitudeAndLongitude":{"longitude":-6.1876164,"latitude":53.608331},"status":"OK","id":"65293","name":"DR.JAMES DOODY"} {"address":"KINSEALY MEDICAL CENTRE, 20 THE RISE, MELROSE PK, SWORDS, CO. DUBLIN,IRELAND","latitudeAndLongitude":{"longitude":-6.202107700000001,"latitude":53.4459362},"status":"OK","id":"62592","name":"DR.JOANNE DUNDON"} {"address":"BOROIMHE MEDICAL CENTRE, FOREST ROAD, SWORDS,CO DUBLIN,IRELAND","latitudeAndLongitude":{"longitude":-6.236895899999999,"latitude":53.4473371},"status":"OK","id":"52389","name":"DR.ANGELINE EE LING TAN"} {"address":"MARY'S COTTAGE, MAIN STREET, , RUSH, CO DUBLIN,IRELAND","latitudeAndLongitude":{"longitude":-6.149824799999999,"latitude":53.4858387},"status":"OK","id":"60324","name":"DR.EVA EGYED"} {"address":"MARY'S COTTAGE, MAIN STREET, RUSH, CO DUBLIN,IRELAND","latitudeAndLongitude":{"longitude":-6.149824799999999,"latitude":53.4858387},"status":"OK","id":"52217","name":"DR.GERGELY FERENC EGYED"} {"address":"7 PORTMARNOCK SHOP ARCADE, STRAND ROAD, PORTMARNOCK, CO. DUBLIN,IRELAND","latitudeAndLongitude":{"longitude":-6.131462300000001,"latitude":53.4257013},"status":"OK","id":"60210","name":"DR.ANNE FLANAGAN"} {"address":"SEABURY MEDICAL CENTRE, 1 SEABURY PARADE, MALAHIDE, CO. DUBLIN,IRELAND","latitudeAndLongitude":{"longitude":-6.1794405,"latitude":53.45539549999999},"status":"OK","id":"61208","name":"DR.JOHN GILBERT"} {"address":"COOLOCK HEALTH CENTRE, CROMCASTLE ROAD, COOLOCK, DUBLIN 5,IRELAND","latitudeAndLongitude":{"longitude":-6.216138399999999,"latitude":53.3954289},"status":"OK","id":"60328","name":"DR.ROSEMARY GILLAN"} {"address":"9 MALAHIDE ROAD, SWORDS, CO. DUBLIN.,IRELAND","latitudeAndLongitude":{"longitude":-6.1736692,"latitude":53.43372129999999},"status":"AMBIGUOUS","id":"81523","name":"DR.SEAMUS GREENAN"} {"address":"MALAHIDE FAMILY PRACTICE, 15 STRAND STREET, MALAHIDE, CO DUBLIN,IRELAND","latitudeAndLongitude":{"longitude":-6.1544343,"latitude":53.452071},"status":"OK","id":"60125","name":"DR.NOELLE HEWETSON"} {"address":"RAHENY MEDICAL, 2 FLOOR RIVER HOUSE, RAHENY SC, DUBLIN 5,IRELAND","latitudeAndLongitude":{"longitude":0.0,"latitude":0.0},"status":"NOT_FOUND","id":"52095","name":"DR.SINEAD HUSSEY"} {"address":"1 THORNDALE DRIVE, MALAHIDE ROAD, ARTANE, DUBLIN 5,IRELAND","latitudeAndLongitude":{"longitude":-6.2161215,"latitude":53.3779687},"status":"OK","id":"65412","name":"DR.ANTHONY J. HYNES"} {"address":"MED CTR, MANOR MALL, BRACKENSTOWN RD, SWORDS, CO. DUBLIN,IRELAND","latitudeAndLongitude":{"longitude":-6.231192999999999,"latitude":53.4574939},"status":"OK","id":"60027","name":"DR.ELEANOR JONES"} {"address":"SEAHOLM SURGERY, 10 HOLMPATRICK, SKERRIES, CO. DUBLIN,IRELAND","latitudeAndLongitude":{"longitude":-6.104672,"latitude":53.5761462},"status":"OK","id":"81894","name":"DR.SARAH KEANE"} {"address":"BALBRIGGAN MEDICAL CENTRE, CLONARD STREET, BALBRIGGAN, CO. DUBLIN,IRELAND","latitudeAndLongitude":{"longitude":-6.1876164,"latitude":53.608331},"status":"OK","id":"61004","name":"DR.MARTINA KEARY"} {"address":"PLAZA CLINIC, MAIN STREET, SWORDS , CO.DUBLIN,IRELAND","latitudeAndLongitude":{"longitude":-6.2208821,"latitude":53.4575444},"status":"OK","id":"60490","name":"DR.PAUL LANNON"} {"address":"CLANNAD MEDICAL CENTRE, FIRST FLOOR, KILBARRACK S.C., DUBLIN 5,IRELAND","latitudeAndLongitude":{"longitude":0.0,"latitude":0.0},"status":"NOT_FOUND","id":"60339","name":"DR.GORDON (KERR) LIVINGSTON"} {"address":"RIDGEWOOD MEDICAL CENTRE, RIDGEWOOD AVENUE, SWORDS, CO. DUBLIN,IRELAND","latitudeAndLongitude":{"longitude":-6.248123,"latitude":53.4477115},"status":"OK","id":"81828","name":"DR.LUCY LYNAM"} {"address":"COOLOCK HEALTH CENTRE, CROMCASTLE ROAD, COOLOCK, DUBLIN 5,IRELAND","latitudeAndLongitude":{"longitude":-6.216138399999999,"latitude":53.3954289},"status":"OK","id":"52329","name":"DR.KATE MACSWEENEY"} {"address":"BROOKHAVEN MED PRACTICE, ALBANY HOUSE, MAIN STREET, SWORDS, CO.DUBLIN,IRELAND","latitudeAndLongitude":{"longitude":-6.2208821,"latitude":53.4575444},"status":"OK","id":"52454","name":"DR.ORLA MCCABE"} {"address":"THE SURGERY, 7 STRAND STREET, SKERRIES, CO. DUBLIN,IRELAND","latitudeAndLongitude":{"longitude":-6.1069486,"latitude":53.5811499},"status":"OK","id":"63200","name":"DR.SEAMUS MULHOLLAND"} {"address":"PORTMARNOCK GP CLINIC, 1 THE DUNES, PORTMARNOCK, CO. DUBLIN,IRELAND","latitudeAndLongitude":{"longitude":-6.1331414,"latitude":53.42375329999999},"status":"OK","id":"60013","name":"DR.MARIE LOUISE MURPHY"} {"address":"SEABURY MEDICAL CENTRE, 1 SEABURY PARADE, MALAHIDE, CO. DUBLIN,IRELAND","latitudeAndLongitude":{"longitude":-6.1794405,"latitude":53.45539549999999},"status":"OK","id":"60552","name":"DR.VERONICA MURPHY"} {"address":"BALBRIGGAN MEDICAL CTR, 1 CLONARD STREET, BALBRIGGAN, CO. DUBLIN,IRELAND","latitudeAndLongitude":{"longitude":-6.1841707,"latitude":53.6097834},"status":"OK","id":"52220","name":"DR.HILARY MURRAY"} {"address":"SALUS MEDICAL CLINIC, ALBANY HOUSE, MAIN STREET SWORDS, CO. DUBLIN,IRELAND","latitudeAndLongitude":{"longitude":-6.2208821,"latitude":53.4575444},"status":"OK","id":"60858","name":"DR.STAN NATIN"} {"address":"BALDOYLE MEDICAL CENTRE, RACECOURSE SHOPPING CTR, BALDOYLE,DUBLIN 13,IRELAND","latitudeAndLongitude":{"longitude":-6.1272516,"latitude":53.3986712},"status":"OK","id":"52384","name":"DR.KERRY O'CONNELL"} {"address":"BALBRIGGAN MEDICAL CENTRE, CLONARD STREET, BALBRIGGAN, CO DUBLIN,IRELAND","latitudeAndLongitude":{"longitude":-6.1876164,"latitude":53.608331},"status":"OK","id":"52520","name":"DR.CLAIRE O'DRISCOLL"} {"address":"EDENPARK SURGERY, EDENMORE PARK, RAHENY, DUBLIN 5,IRELAND","latitudeAndLongitude":{"longitude":0.0,"latitude":0.0},"status":"NOT_FOUND","id":"60950","name":"DR.JOHN O'DWYER"} {"address":"PORTMARNOCK GP CLINIC, 1 THE DUNES, PORTMARNOCK, CO. DUBLIN,IRELAND","latitudeAndLongitude":{"longitude":-6.1331414,"latitude":53.42375329999999},"status":"OK","id":"52394","name":"DR.LAURA O'FLYNN"} {"address":"SWORDS FAMILY PRACTICE, CASTLE SHOPPING CENTRE, BRIDGE STREET,SWORDS, DUBLIN,IRELAND","latitudeAndLongitude":{"longitude":-6.2215976,"latitude":53.45926619999999},"status":"OK","id":"61452","name":"DR.DAVID REILLY"} {"address":"RAILWAY AVENUE MED PRCT, 1 RAILWAY AVENUE, MALAHIDE, CO. DUBLIN,IRELAND","latitudeAndLongitude":{"longitude":-6.151491099999999,"latitude":53.40216350000001},"status":"AMBIGUOUS","id":"61701","name":"DR.AOGAN ROONEY"} {"address":"BALBRIGGAN MEDICAL CENTRE, FINGAL HOUSE, CLONARD ST, BALBRIGGAN,CO. DUBLIN,IRELAND","latitudeAndLongitude":{"longitude":-6.1876164,"latitude":53.608331},"status":"OK","id":"81809","name":"DR.AINE ROWLEY"} {"address":"FAMILY MEDICAL CENTRE, PORTRANE ROAD, DONABATE, CO. DUBLIN,IRELAND","latitudeAndLongitude":{"longitude":-6.1405043,"latitude":53.4906661},"status":"OK","id":"60001","name":"DR.EDWARD SHANAHAN"} {"address":"CLANNAD MEDICAL CENTRE, KILBARRACK S.C, KILBARRACK, DUBLIN 5,IRELAND","latitudeAndLongitude":{"longitude":0.0,"latitude":0.0},"status":"NOT_FOUND","id":"67060","name":"DR.DAVID SHEANE"} {"address":"BROOKSTONE , BROOKSTONE ROAD, BALDOYLE, DUBLIN 13,IRELAND","latitudeAndLongitude":{"longitude":-6.1310207,"latitude":53.39622},"status":"OK","id":"54078","name":"DR.BREDA SYNNOTT"} {"address":"16 MAY PARK , ARTANE , DUBLIN 5,IRELAND","latitudeAndLongitude":{"longitude":-6.2172933,"latitude":53.3762246},"status":"OK","id":"64084","name":"DR.BARRY TEELING"} {"address":"74 PRIOR WOOD, DONABATE, CO DUBLIN,IRELAND","latitudeAndLongitude":{"longitude":-6.1346963,"latitude":53.48985},"status":"OK","id":"55135","name":"DR.MARY TIERNEY"} {"address":"ARTANE MEDICAL CENTRE, 2 MORNINGTON PARK, ARTANE, DUBLIN 5,IRELAND","latitudeAndLongitude":{"longitude":0.0,"latitude":0.0},"status":"NOT_FOUND","id":"61411","name":"DR.PETER TING"} {"address":"7 TOWNYARD COURT, TOWNYARD LANE, MALAHIDE, CO. DUBLIN,IRELAND","latitudeAndLongitude":{"longitude":-6.1526114,"latitude":53.45181290000001},"status":"OK","id":"52014","name":"DR.JOHN VEALE"} {"address":"DONABATE CLINIC, WARRINGTON MEWS, DONABATE, CO DUBLIN,IRELAND","latitudeAndLongitude":{"longitude":-6.1504482,"latitude":53.4853365},"status":"OK","id":"52239","name":"DR.PETER WATSON"} {"address":"EDENMORE HEALTH CENTRE, EDENMORE PARK, RAHENY, DUBLIN 5,IRELAND","latitudeAndLongitude":{"longitude":-6.183315800000001,"latitude":53.3875665},"status":"OK","id":"60384","name":"DR.MARK WHEELER"} {"address":"44 MALAHIDE ROAD, ARTANE, DUBLIN 5.,IRELAND","latitudeAndLongitude":{"longitude":-6.2059384,"latitude":53.38255419999999},"status":"OK","id":"58046","name":"DR.TAREK ZOUROB"} {"address":"VIRGINIA P.C. TEAM, DUBLIN ROAD, VIRGINIA,IRELAND","latitudeAndLongitude":{"longitude":-7.0813222,"latitude":53.8344096},"status":"OK","id":"77057","name":"DR.JILLIAN BEGLEY"} {"address":"VIRGINIA P.C. TEAM, DUBLIN ROAD, VIRGINIA,IRELAND","latitudeAndLongitude":{"longitude":-7.0813222,"latitude":53.8344096},"status":"OK","id":"76086","name":"DR.DERVAL FOYLE"} {"address":"VIRGINIA P.C. TEAM, DUBLIN ROAD, VIRGINIA,IRELAND","latitudeAndLongitude":{"longitude":-7.0813222,"latitude":53.8344096},"status":"OK","id":"76082","name":"DR.GARRETT IGOE"} {"address":"WHEATON HALL MED PRCT, DUBLIN ROAD, DROGHEDA,IRELAND","latitudeAndLongitude":{"longitude":-6.3236992,"latitude":53.705809},"status":"OK","id":"54400","name":"DR.LAOISE BYRNE"} {"address":"41 DUBLIN STREET, DUNDALK,IRELAND","latitudeAndLongitude":{"longitude":-6.4060483,"latitude":53.9991509},"status":"OK","id":"52229","name":"DR.ANNA CHOCHOROWSKA BARAN"} {"address":"41 DUBLIN STREET, DUNDALK,IRELAND","latitudeAndLongitude":{"longitude":-6.4060483,"latitude":53.9991509},"status":"OK","id":"84038","name":"DR.FIONA HENRY"} {"address":"41 DUBLIN STREET, DUNDALK,IRELAND","latitudeAndLongitude":{"longitude":-6.4060483,"latitude":53.9991509},"status":"OK","id":"77208","name":"DR.THOMAS JOSEPH HOGAN"} {"address":"WHEATON HALL MED PRACTICE, WHEATON HALL, DUBLIN ROAD, DROGHEDA,IRELAND","latitudeAndLongitude":{"longitude":-6.3317143,"latitude":53.70902969999999},"status":"OK","id":"75888","name":"DR.FIONNUALA LOUGHREY"} {"address":"WHEATON HALL MED PRACTICE, WHEATON HALL, DUBLIN ROAD, DROGHEDA,IRELAND","latitudeAndLongitude":{"longitude":-6.3317143,"latitude":53.70902969999999},"status":"OK","id":"76876","name":"DR.SYLVIA MCKENNA"} {"address":"WHEATON HALL MED PRACTICE, WHEATON HALL, DUBLIN ROAD, DROGHEDA,IRELAND","latitudeAndLongitude":{"longitude":-6.3317143,"latitude":53.70902969999999},"status":"OK","id":"77581","name":"DR.CONOR O'SHEA"} {"address":"THE ARDBRYAN CLINIC, BRYANSTOWN, DUBLIN ROAD, DROGHEDA,IRELAND","latitudeAndLongitude":{"longitude":-6.337778699999999,"latitude":53.7120937},"status":"OK","id":"54007","name":"DR.JOLANTA SKLADOWSKA"} {"address":"BRYANSTOWN MEDICAL CENTRE, BRYANSTOWN, DUBLIN ROAD, DROGHEDA,IRELAND","latitudeAndLongitude":{"longitude":-6.337778699999999,"latitude":53.7120937},"status":"OK","id":"84239","name":"DR.ERIC YELVERTON"} {"address":"DROGHEDA MEDICAL CLINIC, DUBLIN ROAD, DROGHEDA,IRELAND","latitudeAndLongitude":{"longitude":-6.3236992,"latitude":53.705809},"status":"OK","id":"77275","name":"DR.OLIVER LYNN"} {"address":"ARLINGTON HSE MEDICAL CTR, DUBLIN ROAD,IRELAND","latitudeAndLongitude":{"longitude":-7.59829,"latitude":53.37258},"status":"OK","id":"88056","name":"DR.ANTHONY D'ALTON"} {"address":"ARLINGTON HOUSE MED CTR, DUBLIN ROAD, ORANMORE,IRELAND","latitudeAndLongitude":{"longitude":-8.9297335,"latitude":53.2647506},"status":"OK","id":"73770","name":"DR.DAVID HANNEY"} {"address":"ARLINGTON HOUSE MEDICAL CENTRE, DUBLIN ROAD, ORANMORE, CO. GALWAY,IRELAND","latitudeAndLongitude":{"longitude":-8.9297335,"latitude":53.2647506},"status":"OK","id":"52629","name":"DR.LORNA JOYCE"} {"address":"ARLINGTON HOUSE MED CTR, DUBLIN ROAD,IRELAND","latitudeAndLongitude":{"longitude":-7.59829,"latitude":53.37258},"status":"OK","id":"55673","name":"DR.CATHERINE O'MAHONY"} {"address":"DUBLIN ROAD, SWINFORD,IRELAND","latitudeAndLongitude":{"longitude":-8.944973,"latitude":53.9443603},"status":"OK","id":"88420","name":"DR.FRANCES ROWLEY"} {"address":"COOLEEVIN, DUBLIN ROAD,IRELAND","latitudeAndLongitude":{"longitude":-7.59829,"latitude":53.37258},"status":"OK","id":"52305","name":"DR.PAUL BOOTH"} {"address":"COOLEEVIN, DUBLIN ROAD,IRELAND","latitudeAndLongitude":{"longitude":-7.59829,"latitude":53.37258},"status":"OK","id":"67055","name":"DR.MAEVE CARROLL"} {"address":"PARK LODGE MEDICAL CENTRE, OLD DUBLIN ROAD, LIMERICK,IRELAND","latitudeAndLongitude":{"longitude":-8.5696101,"latitude":52.6680466},"status":"OK","id":"54306","name":"DR.ALISON ENGLISH"} {"address":"PARK LODGE MEDICAL CENTRE, OLD DUBLIN ROAD, LIMERICK,IRELAND","latitudeAndLongitude":{"longitude":-8.5696101,"latitude":52.6680466},"status":"OK","id":"52385","name":"DR.GER LANE"} {"address":"35 DUBLIN ST, CARLOW,IRELAND","latitudeAndLongitude":{"longitude":-6.931028299999999,"latitude":52.83848769999999},"status":"OK","id":"70294","name":"DR.NIAMH GALLAGHER"} {"address":"35C DUBLIN STREET,,IRELAND","latitudeAndLongitude":{"longitude":-6.931028299999999,"latitude":52.83848769999999},"status":"AMBIGUOUS","id":"70294","name":"DR.NIAMH GALLAGHER"} {"address":"35C DUBLIN STREET,,IRELAND","latitudeAndLongitude":{"longitude":-6.931028299999999,"latitude":52.83848769999999},"status":"AMBIGUOUS","id":"52063","name":"DR.RONAN GALLAGHER"}